City_ID,City,Country,Date,Lat,Lng,Max Temp,Humidity,Cloudiness,Wind Speed,Description
0,schaffhausen,CH,2020-11-11 00:43:48,47.7,8.63,42.01,100,90,1.12,fog
1,sao filipe,CV,2020-11-11 00:43:48,14.9,-24.5,78.85,74,0,5.23,clear sky
2,kodiak,US,2020-11-11 00:39:17,57.79,-152.41,44.6,75,90,16.11,light rain
3,lebu,CL,2020-11-11 00:43:48,-37.62,-73.65,52.23,90,0,12.48,clear sky
4,bam,IR,2020-11-11 00:43:48,29.11,58.36,52.99,55,27,1.83,scattered clouds
5,vardo,NO,2020-11-11 00:43:49,70.37,31.11,37.74,79,100,15.37,overcast clouds
6,ewa beach,US,2020-11-11 00:40:19,21.32,-158.01,87.8,45,40,11.41,scattered clouds
7,busselton,AU,2020-11-11 00:39:58,-33.65,115.33,54.0,87,53,4.03,broken clouds
8,pevek,RU,2020-11-11 00:43:49,69.7,170.31,21.04,96,100,12.86,overcast clouds
9,carnarvon,AU,2020-11-11 00:39:14,-24.87,113.63,68.0,42,7,17.22,clear sky
10,hobart,AU,2020-11-11 00:39:25,-42.88,147.33,84.99,31,0,10.29,clear sky
11,airai,TL,2020-11-11 00:43:50,-8.93,125.41,75.38,65,100,2.64,light rain
12,saint george,US,2020-11-11 00:43:38,37.1,-113.58,51.8,37,1,1.7,clear sky
13,cherskiy,RU,2020-11-11 00:35:51,68.75,161.3,-4.32,92,99,4.61,overcast clouds
14,khatanga,RU,2020-11-11 00:35:51,71.97,102.5,-9.2,90,52,5.7,broken clouds
15,nikolskoye,RU,2020-11-11 00:40:00,59.7,30.79,28.0,92,71,4.47,fog
16,rikitea,PF,2020-11-11 00:43:50,-23.12,-134.97,73.8,80,7,19.39,clear sky
17,victoria,HK,2020-11-11 00:40:53,22.29,114.16,73.0,65,0,3.0,clear sky
18,aden,YE,2020-11-11 00:43:50,12.78,45.04,79.68,73,0,10.11,clear sky
19,sheridan,US,2020-11-11 00:43:51,44.83,-106.92,36.0,55,90,4.7,overcast clouds
20,vaini,TO,2020-11-11 00:43:51,-21.2,-175.2,80.6,78,20,12.75,few clouds
21,yellowknife,CA,2020-11-11 00:40:46,62.46,-114.35,3.2,71,90,5.82,light snow
22,albany,US,2020-11-11 00:41:40,42.6,-73.97,63.0,61,0,4.23,clear sky
23,linxia,CN,2020-11-11 00:42:20,35.6,103.21,43.72,59,0,1.86,clear sky
24,sitka,US,2020-11-11 00:43:51,57.05,-135.33,42.8,56,1,10.29,clear sky
25,moussoro,TD,2020-11-11 00:43:51,13.64,16.49,75.22,27,0,11.21,clear sky
26,shubarshi,KZ,2020-11-11 00:41:08,48.59,57.19,28.13,93,0,9.33,clear sky
27,boralday,KZ,2020-11-11 00:43:52,43.36,76.86,26.6,79,42,2.24,mist
28,ushuaia,AR,2020-11-11 00:41:19,-54.8,-68.3,53.6,58,0,6.93,clear sky
29,mnogovershinnyy,RU,2020-11-11 00:43:52,53.94,139.92,13.08,88,100,8.05,overcast clouds
30,paamiut,GL,2020-11-11 00:43:52,61.99,-49.67,26.15,88,100,10.27,overcast clouds
31,bluff,NZ,2020-11-11 00:43:52,-46.6,168.33,59.0,71,2,7.0,clear sky
32,tuktoyaktuk,CA,2020-11-11 00:43:52,69.45,-133.04,-5.8,83,20,9.17,few clouds
33,hauterive,FR,2020-11-11 00:43:53,46.09,3.45,50.0,93,0,3.36,clear sky
34,atuona,PF,2020-11-11 00:43:53,-9.8,-139.03,78.03,76,1,17.31,clear sky
35,cabo san lucas,MX,2020-11-11 00:43:53,22.89,-109.91,77.0,64,40,10.29,scattered clouds
36,krasnoselkup,RU,2020-11-11 00:39:23,65.7,82.47,-2.99,92,35,5.28,scattered clouds
37,barrow,US,2020-11-11 00:43:53,71.29,-156.79,12.2,78,90,24.16,overcast clouds
38,mataura,NZ,2020-11-11 00:43:54,-46.19,168.86,59.0,71,0,7.0,clear sky
39,bull savanna,JM,2020-11-11 00:43:54,17.89,-77.59,76.19,84,100,4.65,overcast clouds
40,thompson,CA,2020-11-11 00:43:54,55.74,-97.86,12.2,92,90,3.36,overcast clouds
41,ribeira grande,PT,2020-11-11 00:43:54,38.52,-28.7,59.0,67,40,5.82,scattered clouds
42,hambantota,LK,2020-11-11 00:43:55,6.12,81.12,75.2,100,20,2.24,thunderstorm
43,asau,RO,2020-11-11 00:43:55,46.43,26.4,39.99,94,97,2.21,overcast clouds
44,iqaluit,CA,2020-11-11 00:39:49,63.75,-68.51,10.4,85,40,9.17,light snow
45,fayaoue,NC,2020-11-11 00:43:55,-20.65,166.53,73.51,82,100,22.28,light rain
46,mar del plata,AR,2020-11-11 00:43:55,-38.0,-57.56,64.4,88,40,8.05,scattered clouds
47,kapaa,US,2020-11-11 00:39:30,22.08,-159.32,82.4,74,75,18.34,broken clouds
48,wuwei,CN,2020-11-11 00:39:05,37.93,102.64,41.88,55,54,3.04,broken clouds
49,tiarei,PF,2020-11-11 00:43:56,-17.53,-149.33,73.4,88,75,8.05,light rain
50,tombouctou,ML,2020-11-11 00:43:56,20.0,-3.0,78.04,18,0,8.93,clear sky
51,saint-philippe,RE,2020-11-11 00:43:56,-21.36,55.77,71.6,64,0,6.93,clear sky
52,angoram,PG,2020-11-11 00:43:56,-4.06,144.07,91.09,57,67,2.42,light rain
53,cape town,ZA,2020-11-11 00:43:32,-33.93,18.42,59.0,71,0,11.41,clear sky
54,sandakan,MY,2020-11-11 00:43:56,5.84,118.12,78.8,94,40,3.36,scattered clouds
55,lagoa,PT,2020-11-11 00:43:57,39.05,-27.98,59.63,67,96,22.44,overcast clouds
56,punta arenas,CL,2020-11-11 00:43:57,-53.15,-70.92,57.2,71,40,14.99,scattered clouds
57,lasa,IT,2020-11-11 00:43:57,46.62,10.7,37.4,93,5,5.82,clear sky
58,tiksi,RU,2020-11-11 00:43:58,71.69,128.87,1.15,94,100,8.25,light snow
59,saskylakh,RU,2020-11-11 00:43:58,71.92,114.08,4.39,93,100,10.49,overcast clouds
60,bredasdorp,ZA,2020-11-11 00:43:58,-34.53,20.04,48.2,87,0,1.12,clear sky
61,bambous virieux,MU,2020-11-11 00:43:59,-20.34,57.76,73.4,83,75,11.41,broken clouds
62,siderno,IT,2020-11-11 00:43:59,38.28,16.3,64.0,53,0,5.77,clear sky
63,port alfred,ZA,2020-11-11 00:43:59,-33.59,26.89,60.4,79,92,6.71,overcast clouds
64,tazovskiy,RU,2020-11-11 00:43:59,67.47,78.7,2.37,94,89,7.38,overcast clouds
65,kholtoson,RU,2020-11-11 00:44:00,50.3,103.31,27.16,89,100,5.21,overcast clouds
66,georgetown,MY,2020-11-11 00:44:00,5.41,100.34,80.6,94,20,4.7,few clouds
67,hernani,ES,2020-11-11 00:41:21,43.27,-1.98,54.0,100,90,4.7,fog
68,cidreira,BR,2020-11-11 00:44:00,-30.18,-50.21,69.37,94,100,12.3,overcast clouds
69,arman,RU,2020-11-11 00:44:00,59.7,150.17,3.06,84,0,8.14,clear sky
70,kulu,TR,2020-11-11 00:44:00,39.1,33.08,44.82,85,0,9.24,clear sky
71,arraial do cabo,BR,2020-11-11 00:44:01,-22.97,-42.03,77.0,83,75,13.87,broken clouds
72,bijie,CN,2020-11-11 00:44:01,27.31,105.29,50.59,60,0,3.51,clear sky
73,eyemouth,GB,2020-11-11 00:44:01,55.87,-2.09,48.99,87,88,1.01,overcast clouds
74,bethel,US,2020-11-11 00:43:23,41.37,-73.41,63.0,82,1,4.7,clear sky
75,mahebourg,MU,2020-11-11 00:44:01,-20.41,57.7,73.4,83,75,11.41,broken clouds
76,marawi,PH,2020-11-11 00:44:02,8.0,124.29,75.99,87,100,5.99,overcast clouds
77,port elizabeth,ZA,2020-11-11 00:43:33,-33.92,25.57,55.4,100,0,4.7,clear sky
78,jamestown,US,2020-11-11 00:42:42,42.1,-79.24,64.99,63,1,10.29,clear sky
79,shakawe,BW,2020-11-11 00:44:02,-18.37,21.85,77.05,47,93,3.4,overcast clouds
80,vestmannaeyjar,IS,2020-11-11 00:44:02,63.44,-20.27,40.93,71,100,7.2,overcast clouds
81,wanlaweyn,SO,2020-11-11 00:44:03,2.62,44.89,74.26,82,100,14.03,light rain
82,coquimbo,CL,2020-11-11 00:39:05,-29.95,-71.34,53.6,93,75,8.05,broken clouds
83,hilo,US,2020-11-11 00:44:03,19.73,-155.09,82.4,65,90,6.93,overcast clouds
84,trojes,AL,2020-11-11 00:44:03,41.76,19.96,42.8,93,0,1.12,clear sky
85,qaanaaq,GL,2020-11-11 00:44:03,77.48,-69.36,-2.4,58,0,5.82,clear sky
86,ponta do sol,PT,2020-11-11 00:44:03,32.67,-17.1,68.0,68,75,6.93,broken clouds
87,amiens,FR,2020-11-11 00:44:03,49.9,2.3,51.01,100,90,4.7,fog
88,butaritari,KI,2020-11-11 00:44:04,3.07,172.79,82.17,77,37,7.11,scattered clouds
89,hermanus,ZA,2020-11-11 00:44:04,-34.42,19.23,52.0,88,0,1.01,clear sky
90,hithadhoo,MV,2020-11-11 00:44:04,-0.6,73.08,84.22,69,100,8.03,overcast clouds
91,tabou,CI,2020-11-11 00:44:04,4.42,-7.35,78.53,86,100,7.47,light rain
92,prigen,ID,2020-11-11 00:44:04,-7.68,112.62,79.92,62,9,1.07,clear sky
93,broome,US,2020-11-11 00:44:05,42.25,-75.83,63.0,79,0,1.01,clear sky
94,diego de almagro,CL,2020-11-11 00:44:05,-26.37,-70.05,54.84,59,0,1.5,clear sky
95,yar-sale,RU,2020-11-11 00:44:05,66.83,70.83,6.76,95,79,6.38,broken clouds
96,nabire,ID,2020-11-11 00:43:00,-3.37,135.48,85.24,65,100,1.16,overcast clouds
97,flinders,AU,2020-11-11 00:44:06,-34.58,150.86,73.99,71,0,5.01,clear sky
98,miri,MY,2020-11-11 00:43:29,4.41,114.01,80.6,88,20,3.36,few clouds
99,chardara,KZ,2020-11-11 00:44:06,41.25,67.97,49.35,56,100,3.51,overcast clouds
100,xichang,CN,2020-11-11 00:44:06,27.9,102.26,55.11,66,0,0.6,clear sky
101,carutapera,BR,2020-11-11 00:44:06,-1.2,-46.02,77.54,87,25,4.47,scattered clouds
102,andenes,NO,2020-11-11 00:44:06,69.31,16.12,39.99,62,97,11.41,overcast clouds
103,clyde river,CA,2020-11-11 00:44:07,70.47,-68.59,-2.2,91,5,5.5,clear sky
104,banda aceh,ID,2020-11-11 00:44:07,5.56,95.32,80.83,79,1,10.04,clear sky
105,baykit,RU,2020-11-11 00:44:07,61.67,96.37,25.59,95,100,3.42,overcast clouds
106,hasaki,JP,2020-11-11 00:44:08,35.73,140.83,55.0,46,20,11.41,few clouds
107,valparaiso,CL,2020-11-11 00:43:02,-33.04,-71.63,57.0,100,90,6.93,overcast clouds
108,saldanha,ZA,2020-11-11 00:44:08,-33.01,17.94,53.6,71,0,4.7,clear sky
109,bathsheba,BB,2020-11-11 00:44:08,13.22,-59.52,78.8,78,20,9.17,shower rain
110,longyearbyen,SJ,2020-11-11 00:39:11,78.22,15.64,33.8,74,75,8.05,broken clouds
111,waipawa,NZ,2020-11-11 00:44:08,-41.41,175.52,55.99,76,99,13.87,light rain
112,norden,DE,2020-11-11 00:40:49,53.6,7.2,42.01,100,0,4.7,clear sky
113,norman wells,CA,2020-11-11 00:44:09,65.28,-126.83,-9.4,83,75,5.82,broken clouds
114,san patricio,US,2020-11-11 00:44:09,28.02,-97.52,78.8,61,75,10.29,broken clouds
115,latung,PH,2020-11-11 00:44:09,5.5,120.88,82.45,71,100,1.95,overcast clouds
116,outlook,CA,2020-11-11 00:44:10,51.5,-107.05,15.8,85,100,5.82,overcast clouds
117,podgornoye,RU,2020-11-11 00:44:10,51.73,39.15,30.2,80,0,6.71,clear sky
118,igarka,RU,2020-11-11 00:44:10,67.47,86.58,0.99,93,97,4.5,overcast clouds
119,upernavik,GL,2020-11-11 00:44:11,72.79,-56.15,11.88,91,100,3.94,overcast clouds
120,namatanai,PG,2020-11-11 00:44:11,-3.67,152.43,84.04,76,22,6.58,light rain
121,port-gentil,GA,2020-11-11 00:44:11,-0.72,8.78,79.02,78,100,5.68,overcast clouds
122,naze,JP,2020-11-11 00:44:11,28.37,129.48,73.4,60,75,17.22,broken clouds
123,griffith,US,2020-11-11 00:40:54,41.53,-87.42,70.0,73,40,19.46,scattered clouds
124,torbay,CA,2020-11-11 00:44:12,47.67,-52.73,52.0,93,20,31.09,few clouds
125,alizai,PK,2020-11-11 00:44:13,33.54,70.35,49.86,45,49,1.9,scattered clouds
126,prainha,BR,2020-11-11 00:44:13,-1.8,-53.48,76.32,86,99,4.14,overcast clouds
127,udachnyy,RU,2020-11-11 00:44:13,66.42,112.4,26.6,79,90,11.18,light shower snow
128,severo-kurilsk,RU,2020-11-11 00:44:13,50.68,156.12,37.13,75,97,12.33,overcast clouds
129,port blair,IN,2020-11-11 00:44:14,11.67,92.75,81.59,76,75,14.32,broken clouds
130,olafsvik,IS,2020-11-11 00:44:14,64.89,-23.71,39.7,74,100,9.06,overcast clouds
131,touros,BR,2020-11-11 00:39:38,-5.2,-35.46,78.8,83,75,8.05,broken clouds
132,waynesville,US,2020-11-11 00:44:14,35.49,-82.99,62.01,75,100,1.01,overcast clouds
133,new norfolk,AU,2020-11-11 00:44:14,-42.78,147.06,86.0,28,34,1.01,scattered clouds
134,tuatapere,NZ,2020-11-11 00:44:15,-46.13,167.68,59.0,71,12,7.0,few clouds
135,ostrovnoy,RU,2020-11-11 00:44:15,68.05,39.51,32.29,95,100,12.71,overcast clouds
136,ilebo,CD,2020-11-11 00:44:15,-4.32,20.58,67.35,96,15,0.6,few clouds
137,puerto ayora,EC,2020-11-11 00:44:15,-0.74,-90.35,69.01,88,82,5.01,broken clouds
138,avarua,CK,2020-11-11 00:44:15,-21.21,-159.78,80.6,78,0,12.68,clear sky
139,mareeba,AU,2020-11-11 00:44:15,-17.0,145.43,84.99,58,75,8.05,broken clouds
140,richards bay,ZA,2020-11-11 00:44:16,-28.78,32.04,66.43,90,100,8.46,light rain
141,zhumadian,CN,2020-11-11 00:44:16,32.98,114.03,57.06,56,0,6.85,clear sky
142,castro,BR,2020-11-11 00:43:04,-24.79,-50.01,64.44,91,100,1.1,overcast clouds
143,kemijarvi,FI,2020-11-11 00:44:16,66.71,27.43,27.68,92,98,4.41,overcast clouds
144,lorengau,PG,2020-11-11 00:44:16,-2.02,147.27,85.53,65,100,5.3,overcast clouds
145,guerrero negro,MX,2020-11-11 00:44:16,27.98,-114.06,63.43,65,0,16.11,clear sky
146,pemba,MZ,2020-11-11 00:44:17,-12.97,40.52,78.8,83,40,5.82,scattered clouds
147,batagay,RU,2020-11-11 00:44:17,67.63,134.63,-15.68,82,83,3.94,broken clouds
148,ahipara,NZ,2020-11-11 00:44:17,-35.17,173.17,63.16,64,1,11.39,clear sky
149,puerto escondido,MX,2020-11-11 00:44:16,15.85,-97.07,82.4,69,75,6.93,broken clouds
150,geraldton,AU,2020-11-11 00:44:17,-28.77,114.6,64.4,55,90,9.17,overcast clouds
151,kawalu,ID,2020-11-11 00:44:17,-7.38,108.21,78.12,78,100,1.52,overcast clouds
152,smyrna,US,2020-11-11 00:39:55,33.88,-84.51,69.01,100,90,4.7,mist
153,sur,OM,2020-11-11 00:44:18,22.57,59.53,73.02,69,0,3.09,clear sky
154,alakurtti,RU,2020-11-11 00:44:18,66.97,30.35,27.54,92,100,3.49,overcast clouds
155,ilhabela,BR,2020-11-11 00:39:59,-23.78,-45.36,73.15,89,100,1.34,overcast clouds
156,jiaxing,CN,2020-11-11 00:44:18,30.75,120.75,66.0,51,0,7.38,clear sky
157,caceres,ES,2020-11-11 00:44:19,39.52,-6.37,50.0,93,1,4.05,clear sky
158,fairbanks,US,2020-11-11 00:42:16,64.84,-147.72,27.0,86,90,1.12,light snow
159,devils lake,US,2020-11-11 00:42:58,48.11,-98.87,21.99,67,1,3.36,clear sky
160,sisimiut,GL,2020-11-11 00:44:19,66.94,-53.67,17.8,92,100,7.67,overcast clouds
161,huarmey,PE,2020-11-11 00:44:19,-10.07,-78.15,62.22,87,63,5.08,broken clouds
162,kaitangata,NZ,2020-11-11 00:44:20,-46.28,169.85,59.0,74,77,13.0,broken clouds
163,berlevag,NO,2020-11-11 00:44:20,70.86,29.09,37.71,79,100,13.6,light rain
164,madimba,TZ,2020-11-11 00:44:20,-10.4,40.33,77.38,83,87,7.83,overcast clouds
165,aksum,ET,2020-11-11 00:44:20,14.12,38.72,54.25,60,69,6.24,broken clouds
166,vao,NC,2020-11-11 00:44:20,-22.67,167.48,70.88,73,100,20.15,overcast clouds
167,sawakin,SD,2020-11-11 00:44:21,19.11,37.33,82.58,76,34,9.42,light rain
168,hobyo,SO,2020-11-11 00:44:21,5.35,48.53,78.82,80,6,11.61,clear sky
169,vilhena,BR,2020-11-11 00:39:44,-12.74,-60.15,78.8,78,0,2.24,clear sky
170,gushikawa,JP,2020-11-11 00:39:29,26.35,127.87,73.4,73,75,14.99,broken clouds
171,cam ranh,VN,2020-11-11 00:44:22,11.92,109.16,79.5,83,13,1.43,few clouds
172,hirara,JP,2020-11-11 00:44:22,24.8,125.28,71.6,73,75,18.34,broken clouds
173,santa isabel do rio negro,BR,2020-11-11 00:44:22,-0.41,-65.02,78.66,74,1,0.29,clear sky
174,east london,ZA,2020-11-11 00:43:48,-33.02,27.91,62.56,77,99,10.63,light rain
175,penzance,GB,2020-11-11 00:44:23,50.12,-5.54,53.6,87,100,17.22,overcast clouds
176,wadi musa,JO,2020-11-11 00:44:23,30.32,35.48,52.32,79,0,2.93,clear sky
177,parbhani,IN,2020-11-11 00:44:24,19.27,76.78,58.37,60,0,4.12,clear sky
178,san miguel,SV,2020-11-11 00:39:27,13.48,-88.18,73.9,93,100,1.63,overcast clouds
179,zeerust,ZA,2020-11-11 00:44:24,-25.54,26.08,62.6,88,0,9.17,clear sky
180,poya,NC,2020-11-11 00:44:24,-21.35,165.15,75.85,62,100,10.16,light rain
181,tukrah,LY,2020-11-11 00:44:24,32.53,20.58,65.48,80,19,9.78,few clouds
182,dhidhdhoo,MV,2020-11-11 00:40:49,6.88,73.1,83.23,70,94,5.7,overcast clouds
183,muroto,JP,2020-11-11 00:44:25,33.28,134.15,57.2,47,20,6.93,few clouds
184,matay,EG,2020-11-11 00:44:25,28.42,30.78,57.92,60,0,4.36,clear sky
185,okhotsk,RU,2020-11-11 00:44:25,59.38,143.3,0.59,87,78,15.12,broken clouds
186,los llanos de aridane,ES,2020-11-11 00:44:25,28.66,-17.92,69.8,64,90,8.05,overcast clouds
187,hammerfest,NO,2020-11-11 00:44:25,70.66,23.68,30.2,86,0,6.93,clear sky
188,ende,ID,2020-11-11 00:44:25,-8.84,121.66,87.66,58,77,1.16,broken clouds
189,coihaique,CL,2020-11-11 00:44:25,-45.58,-72.07,66.2,48,0,5.82,clear sky
190,haines junction,CA,2020-11-11 00:44:26,60.75,-137.51,8.6,78,84,0.31,broken clouds
191,christchurch,NZ,2020-11-11 00:43:01,-43.53,172.63,61.0,62,0,5.82,clear sky
192,mount gambier,AU,2020-11-11 00:44:26,-37.83,140.77,59.0,93,75,5.82,broken clouds
193,shache,CN,2020-11-11 00:44:26,38.42,77.24,31.98,73,0,4.27,clear sky
194,porto novo,BJ,2020-11-11 00:44:27,6.5,2.6,77.72,87,0,6.04,clear sky
195,goba,ET,2020-11-11 00:44:27,7.02,39.98,49.69,84,91,2.48,overcast clouds
196,rawson,AR,2020-11-11 00:44:27,-43.3,-65.1,64.13,67,83,12.5,broken clouds
197,nova olinda do norte,BR,2020-11-11 00:41:29,-3.89,-59.09,79.21,76,11,2.1,few clouds
198,inhambane,MZ,2020-11-11 00:44:27,-23.86,35.38,72.55,91,8,8.9,clear sky
199,evensk,RU,2020-11-11 00:44:28,61.95,159.23,2.08,85,51,7.78,broken clouds
200,maudaha,IN,2020-11-11 00:39:48,25.68,80.12,63.32,39,0,3.87,clear sky
201,labuhan,ID,2020-11-11 00:44:28,-6.88,112.21,83.93,68,1,8.03,clear sky
202,esmeraldas,BR,2020-11-11 00:44:28,-19.76,-44.31,69.8,60,75,4.7,broken clouds
203,lavrentiya,RU,2020-11-11 00:44:28,65.58,-171.0,33.64,92,100,11.12,overcast clouds
204,colomi,BO,2020-11-11 00:44:29,-17.35,-65.87,69.8,40,75,6.93,broken clouds
205,ponta delgada,PT,2020-11-11 00:44:29,37.73,-25.67,60.8,82,75,24.16,broken clouds
206,bartica,GY,2020-11-11 00:44:29,6.4,-58.62,78.8,88,40,6.93,scattered clouds
207,zhigansk,RU,2020-11-11 00:44:29,66.77,123.37,-0.98,92,100,21.59,snow
208,paciran,ID,2020-11-11 00:44:30,-6.88,112.38,84.49,67,0,5.79,clear sky
209,tura,IN,2020-11-11 00:44:30,25.52,90.22,64.8,67,0,4.16,clear sky
210,qaqortoq,GL,2020-11-11 00:44:30,60.72,-46.03,24.08,91,100,7.4,overcast clouds
211,hohhot,CN,2020-11-11 00:44:30,40.81,111.65,30.2,63,0,4.47,clear sky
212,fereydun kenar,IR,2020-11-11 00:44:30,36.69,52.52,61.29,58,91,3.51,overcast clouds
213,assiniboia,CA,2020-11-11 00:44:30,49.63,-105.98,19.4,79,97,8.05,overcast clouds
214,olinda,BR,2020-11-11 00:44:30,-8.01,-34.86,80.6,69,40,10.29,scattered clouds
215,esperance,AU,2020-11-11 00:44:31,-33.87,121.9,55.4,100,75,14.99,broken clouds
216,porto empedocle,IT,2020-11-11 00:44:31,37.29,13.53,55.99,78,0,8.01,clear sky
217,chilliwack,CA,2020-11-11 00:42:07,49.17,-121.94,42.8,75,99,1.12,overcast clouds
218,qasigiannguit,GL,2020-11-11 00:44:31,68.82,-51.19,2.82,91,68,1.9,broken clouds
219,fez,MA,2020-11-11 00:43:29,34.04,-5.0,59.0,67,0,10.29,clear sky
220,krasnyy yar,RU,2020-11-11 00:44:31,46.53,48.35,28.4,86,0,6.71,clear sky
221,glens falls,US,2020-11-11 00:44:00,43.31,-73.64,57.99,87,1,5.82,clear sky
222,khani,GE,2020-11-11 00:44:31,41.96,42.96,51.8,100,75,3.36,broken clouds
223,souillac,MU,2020-11-11 00:44:32,-20.52,57.52,73.4,83,75,11.41,broken clouds
224,pangnirtung,CA,2020-11-11 00:44:32,66.15,-65.71,6.01,77,0,7.09,clear sky
225,hamilton,US,2020-11-11 00:43:55,39.18,-84.53,73.99,56,90,6.93,overcast clouds
226,camacha,PT,2020-11-11 00:44:32,33.08,-16.33,68.0,64,40,11.41,scattered clouds
227,eydhafushi,MV,2020-11-11 00:44:32,5.1,73.07,82.72,70,40,4.65,scattered clouds
228,ancud,CL,2020-11-11 00:44:32,-41.87,-73.82,59.0,72,0,2.24,clear sky
229,vila franca do campo,PT,2020-11-11 00:44:33,37.72,-25.43,60.8,82,75,24.16,broken clouds
230,westport,US,2020-11-11 00:42:38,41.14,-73.36,62.6,88,1,12.75,clear sky
231,steamboat springs,US,2020-11-11 00:44:33,40.48,-106.83,26.01,73,90,9.17,overcast clouds
232,gweta,BW,2020-11-11 00:44:33,-20.18,25.23,74.79,62,98,17.58,overcast clouds
233,portachuelo,BO,2020-11-11 00:44:33,-17.35,-63.4,77.0,83,75,8.05,broken clouds
234,husavik,IS,2020-11-11 00:44:33,66.04,-17.34,32.0,92,90,2.24,overcast clouds
235,pitimbu,BR,2020-11-11 00:44:34,-7.47,-34.81,75.2,83,75,13.87,broken clouds
236,north bend,US,2020-11-11 00:43:38,43.41,-124.22,50.0,93,75,9.17,broken clouds
237,esso,RU,2020-11-11 00:44:34,55.93,158.7,15.17,88,100,5.41,overcast clouds
238,marienburg,PL,2020-11-11 00:44:34,54.04,19.03,42.01,100,90,5.95,overcast clouds
239,yining,CN,2020-11-11 00:39:53,29.04,114.56,59.13,54,0,0.87,clear sky
240,acurenam,GQ,2020-11-11 00:44:35,1.03,10.65,66.42,97,2,1.83,clear sky
241,kruisfontein,ZA,2020-11-11 00:44:35,-34.0,24.73,55.99,95,0,3.18,clear sky
242,marzuq,YE,2020-11-11 00:44:35,14.4,46.47,61.99,64,0,2.17,clear sky
243,novikovo,RU,2020-11-11 00:44:35,51.15,37.89,34.57,85,71,4.88,broken clouds
244,nhulunbuy,AU,2020-11-11 00:44:35,-12.23,136.77,87.8,58,75,14.99,broken clouds
245,kharp,RU,2020-11-11 00:44:36,66.8,65.81,9.27,91,0,7.27,clear sky
246,bandarbeyla,SO,2020-11-11 00:44:36,9.49,50.81,75.45,84,18,11.83,few clouds
247,batman,TR,2020-11-11 00:44:36,37.89,41.13,48.2,100,0,1.28,mist
248,faya,SA,2020-11-11 00:44:36,18.39,42.45,59.0,93,0,2.28,clear sky
249,sa kaeo,TH,2020-11-11 00:44:36,13.75,102.33,69.91,79,81,8.84,broken clouds
250,kurgan,RU,2020-11-11 00:44:36,55.45,65.33,26.08,97,99,4.88,overcast clouds
251,belyy yar,RU,2020-11-11 00:44:37,53.6,91.39,30.2,74,0,11.18,clear sky
252,navolato,MX,2020-11-11 00:44:37,24.77,-107.69,80.6,42,20,9.17,few clouds
253,petukhovo,RU,2020-11-11 00:44:37,55.07,67.9,29.35,99,100,7.81,overcast clouds
254,churapcha,RU,2020-11-11 00:44:37,62.0,132.43,-7.17,90,85,3.09,overcast clouds
255,vanimo,PG,2020-11-11 00:44:37,-2.67,141.3,86.76,63,71,2.01,broken clouds
256,sambava,MG,2020-11-11 00:44:37,-14.27,50.17,72.88,85,6,7.87,clear sky
257,elko,US,2020-11-11 00:44:38,41.0,-115.5,35.6,59,90,9.17,overcast clouds
258,shenzhen,CN,2020-11-11 00:44:38,22.55,114.07,73.0,51,0,7.14,clear sky
259,tambun,ID,2020-11-11 00:44:38,-6.26,107.07,86.0,83,20,5.82,haze
260,mahenge,TZ,2020-11-11 00:44:38,-8.68,36.72,65.84,100,85,2.66,overcast clouds
261,asfi,MA,2020-11-11 00:44:38,32.3,-9.24,63.52,74,0,14.94,clear sky
262,chuy,UY,2020-11-11 00:44:39,-33.7,-53.46,60.39,88,66,9.22,broken clouds
263,yumen,CN,2020-11-11 00:44:39,40.28,97.2,30.6,68,0,3.11,clear sky
264,colares,PT,2020-11-11 00:44:39,38.8,-9.45,57.99,87,0,8.01,clear sky
265,hami,CN,2020-11-11 00:44:39,42.8,93.45,37.24,66,0,8.19,clear sky
266,daneasa,RO,2020-11-11 00:44:39,44.15,24.57,45.0,100,90,6.93,mist
267,sokoni,TZ,2020-11-11 00:44:39,-6.43,39.55,75.2,94,75,8.63,broken clouds
268,ibra,OM,2020-11-11 00:44:40,22.69,58.53,66.2,70,0,3.38,clear sky
269,brownsville,US,2020-11-11 00:44:40,25.9,-97.5,78.8,69,1,9.17,clear sky
270,salalah,OM,2020-11-11 00:44:40,17.02,54.09,77.0,73,20,3.36,few clouds
271,sinnamary,GF,2020-11-11 00:44:40,5.38,-52.95,79.5,84,97,7.52,overcast clouds
272,wuda,CN,2020-11-11 00:44:40,39.5,106.71,44.65,55,44,1.16,scattered clouds
273,mayo,US,2020-11-11 00:44:41,38.89,-76.51,66.2,88,1,8.05,clear sky
274,azare,NG,2020-11-11 00:44:41,11.68,10.19,70.27,31,0,7.63,clear sky
275,berdigestyakh,RU,2020-11-11 00:44:02,62.1,126.7,7.23,94,100,3.67,overcast clouds
276,trinidad,BO,2020-11-11 00:44:41,-14.83,-64.9,75.96,89,100,5.32,overcast clouds
277,kostek,RU,2020-11-11 00:44:41,43.34,46.85,49.91,55,99,10.18,overcast clouds
278,dingle,PH,2020-11-11 00:44:41,11.0,122.67,81.12,80,100,4.09,overcast clouds
279,mandalgovi,MN,2020-11-11 00:44:42,45.76,106.27,31.1,76,0,7.58,clear sky
280,mahesana,IN,2020-11-11 00:44:42,23.6,72.4,59.0,72,0,7.58,haze
281,moose factory,CA,2020-11-11 00:44:42,51.26,-80.61,33.8,86,90,5.82,overcast clouds
282,college,US,2020-11-11 00:42:28,64.86,-147.8,27.0,79,90,3.36,overcast clouds
283,dikson,RU,2020-11-11 00:44:42,73.51,80.55,10.06,95,78,17.69,broken clouds
284,sehithwa,BW,2020-11-11 00:44:42,-20.47,22.72,76.01,52,76,11.63,broken clouds
285,tezu,IN,2020-11-11 00:44:43,27.92,96.17,68.72,52,0,2.82,clear sky
286,atherton,GB,2020-11-11 00:44:43,53.52,-2.49,50.0,84,100,4.0,overcast clouds
287,kondinskoye,RU,2020-11-11 00:44:43,59.65,67.41,19.6,97,97,4.54,overcast clouds
288,swan hill,AU,2020-11-11 00:44:43,-35.34,143.55,83.55,38,100,21.18,light rain
289,tasiilaq,GL,2020-11-11 00:44:43,65.61,-37.64,29.59,95,100,21.43,overcast clouds
290,katsuura,JP,2020-11-11 00:42:20,35.13,140.3,60.01,49,20,17.22,few clouds
291,pacific grove,US,2020-11-11 00:43:00,36.62,-121.92,55.4,58,1,5.82,clear sky
292,wawa,NG,2020-11-11 00:44:44,9.9,4.42,79.32,43,76,1.97,broken clouds
293,yabrud,SY,2020-11-11 00:44:44,33.97,36.66,51.8,87,0,0.45,clear sky
294,la rioja,ES,2020-11-11 00:44:44,42.25,-2.5,48.99,100,0,6.35,clear sky
295,gusinoye ozero,RU,2020-11-11 00:44:44,51.11,106.26,29.5,95,100,1.68,overcast clouds
296,saint-francois,FR,2020-11-11 00:44:45,46.42,3.91,48.0,100,90,2.24,fog
297,novospasskoye,RU,2020-11-11 00:44:45,53.15,47.75,31.15,95,76,10.47,broken clouds
298,santiago de cao,PE,2020-11-11 00:44:45,-7.96,-79.24,62.08,88,14,6.55,few clouds
299,halifax,CA,2020-11-11 00:43:10,44.65,-63.57,52.0,100,20,9.17,few clouds
300,miraflores,MX,2020-11-11 00:44:45,19.22,-98.81,77.0,17,5,4.7,clear sky
301,isla vista,US,2020-11-11 00:43:58,34.41,-119.86,60.8,41,1,9.17,clear sky
302,alofi,NU,2020-11-11 00:44:46,-19.06,-169.92,80.6,65,75,14.99,broken clouds
303,peleduy,RU,2020-11-11 00:44:46,59.63,112.74,28.17,97,100,6.67,overcast clouds
304,port lincoln,AU,2020-11-11 00:44:46,-34.73,135.87,66.49,58,0,27.0,clear sky
305,amboasary,MG,2020-11-11 00:44:46,-25.03,46.38,73.4,94,0,16.11,clear sky
306,encheng,CN,2020-11-11 00:44:46,22.18,112.3,69.58,46,54,7.92,broken clouds
307,arlington,US,2020-11-11 00:41:22,32.74,-97.11,64.99,34,1,5.82,clear sky
308,chicla,PE,2020-11-11 00:44:46,-11.71,-76.27,49.75,58,81,4.5,broken clouds
309,katherine,AU,2020-11-11 00:44:47,-14.47,132.27,91.4,49,75,11.41,broken clouds
310,la ronge,CA,2020-11-11 00:44:47,55.1,-105.28,21.2,85,100,2.24,light snow
311,charleville-mezieres,FR,2020-11-11 00:44:47,49.77,4.72,51.01,100,20,1.12,mist
312,vakhrushev,RU,2020-11-11 00:44:47,48.98,142.97,32.49,85,0,6.93,clear sky
313,marsa matruh,EG,2020-11-11 00:44:47,31.35,27.25,66.54,62,0,8.55,clear sky
314,sibolga,ID,2020-11-11 00:44:47,1.74,98.78,82.24,71,93,1.97,overcast clouds
315,adre,TD,2020-11-11 00:44:47,13.47,22.2,71.55,28,0,16.98,clear sky
316,narsaq,GL,2020-11-11 00:44:48,60.92,-46.05,21.42,93,100,5.06,overcast clouds
317,kenai,US,2020-11-11 00:44:48,60.55,-151.26,30.99,86,1,11.41,clear sky
318,erenhot,CN,2020-11-11 00:44:48,43.65,111.98,41.22,64,43,11.16,scattered clouds
319,constitucion,CL,2020-11-11 00:44:48,-35.33,-72.42,53.15,91,0,1.52,clear sky
320,saint-augustin,CA,2020-11-11 00:42:28,51.23,-58.65,51.48,82,100,11.68,overcast clouds
321,lewistown,US,2020-11-11 00:44:49,40.6,-77.57,68.0,72,90,3.36,overcast clouds
322,bilma,NE,2020-11-11 00:40:52,18.69,12.92,66.63,33,0,11.27,clear sky
323,ixtapa,MX,2020-11-11 00:44:49,20.7,-105.2,82.4,74,75,9.17,broken clouds
324,kathmandu,NP,2020-11-11 00:44:49,27.72,85.32,48.2,100,20,3.36,few clouds
325,kavaratti,IN,2020-11-11 00:44:49,10.57,72.64,82.54,65,27,10.38,scattered clouds
326,san andres,CO,2020-11-11 00:44:49,12.58,-81.7,78.8,88,75,3.36,broken clouds
327,lompoc,US,2020-11-11 00:44:50,34.64,-120.46,62.6,42,1,9.17,clear sky
328,zafra,ES,2020-11-11 00:44:50,38.42,-6.42,53.01,85,43,5.99,scattered clouds
329,byron bay,AU,2020-11-11 00:44:50,-28.65,153.62,80.01,56,6,10.29,clear sky
330,fort nelson,CA,2020-11-11 00:43:06,58.81,-122.7,8.6,71,75,2.24,broken clouds
331,shimoda,JP,2020-11-11 00:44:50,34.67,138.95,57.2,50,40,16.11,scattered clouds
332,provideniya,RU,2020-11-11 00:44:50,64.38,-173.3,33.8,97,75,6.71,broken clouds
333,vung tau,VN,2020-11-11 00:43:51,10.35,107.08,75.58,83,100,4.9,overcast clouds
334,laguna,US,2020-11-11 00:41:25,38.42,-121.42,60.8,26,1,4.7,clear sky
335,turiacu,BR,2020-11-11 00:44:51,-1.66,-45.37,76.33,90,100,2.39,overcast clouds
336,verkhnyaya toyma,RU,2020-11-11 00:44:51,62.23,45.0,30.79,96,84,8.75,broken clouds
337,nuuk,GL,2020-11-11 00:41:13,64.18,-51.72,14.05,96,99,6.33,overcast clouds
338,alappuzha,IN,2020-11-11 00:44:51,9.49,76.33,77.09,81,21,4.07,few clouds
339,boyolangu,ID,2020-11-11 00:44:51,-8.12,111.89,81.7,74,39,5.99,scattered clouds
340,hinton,CA,2020-11-11 00:44:51,53.4,-117.59,26.6,86,100,4.7,overcast clouds
341,kodinsk,RU,2020-11-11 00:44:52,58.69,99.18,31.82,97,100,14.5,overcast clouds
342,virginia beach,US,2020-11-11 00:40:31,36.85,-75.98,72.0,87,2,1.01,clear sky
343,cururupu,BR,2020-11-11 00:44:52,-1.83,-44.87,76.21,92,100,1.39,overcast clouds
344,sao joao da barra,BR,2020-11-11 00:44:37,-21.64,-41.05,74.12,89,100,15.12,overcast clouds
345,pierre,US,2020-11-11 00:44:52,44.37,-100.35,33.01,78,1,11.41,clear sky
346,leningradskiy,RU,2020-11-11 00:44:52,69.38,178.42,25.07,97,100,17.34,light snow
347,bodden town,KY,2020-11-11 00:44:52,19.28,-81.25,82.99,78,20,6.93,few clouds
348,caravelas,BR,2020-11-11 00:44:52,-17.71,-39.25,74.7,86,77,7.23,broken clouds
349,denpasar,ID,2020-11-11 00:44:53,-8.65,115.22,78.8,94,75,2.24,broken clouds
350,darnah,LY,2020-11-11 00:44:53,32.77,22.64,67.35,71,91,10.29,overcast clouds
351,avera,US,2020-11-11 00:44:53,33.19,-82.53,71.6,94,90,6.93,mist
352,coahuayana,MX,2020-11-11 00:44:53,18.73,-103.68,77.0,78,20,8.05,few clouds
353,bilibino,RU,2020-11-11 00:44:54,68.05,166.44,0.7,90,100,1.99,overcast clouds
354,thinadhoo,MV,2020-11-11 00:44:54,0.53,72.93,83.79,72,55,7.16,light rain
355,jennings,US,2020-11-11 00:44:54,38.72,-90.26,57.2,71,75,14.99,broken clouds
356,smithers,CA,2020-11-11 00:40:02,54.78,-127.17,32.0,93,40,6.93,scattered clouds
357,necochea,AR,2020-11-11 00:42:08,-38.55,-58.74,60.01,81,0,5.01,clear sky
358,cubuk,TR,2020-11-11 00:44:55,40.24,33.03,45.0,86,0,6.93,clear sky
359,lwowek slaski,PL,2020-11-11 00:44:55,51.11,15.59,41.0,92,97,1.99,overcast clouds
360,anjangaon,IN,2020-11-11 00:44:55,21.16,77.31,61.63,41,0,3.53,clear sky
361,parana,AR,2020-11-11 00:44:55,-31.73,-60.52,73.99,53,0,11.05,clear sky
362,les herbiers,FR,2020-11-11 00:44:56,46.87,-1.02,51.8,93,75,5.82,mist
363,nanakuli,US,2020-11-11 00:44:56,21.39,-158.15,87.8,45,40,11.41,scattered clouds
364,severo-yeniseyskiy,RU,2020-11-11 00:44:56,60.37,93.04,22.32,97,100,11.45,overcast clouds
365,ambon,ID,2020-11-11 00:44:56,-3.7,128.18,87.8,66,20,2.24,few clouds
366,nanortalik,GL,2020-11-11 00:44:56,60.14,-45.24,28.47,87,100,6.64,overcast clouds
367,xingyi,CN,2020-11-11 00:44:56,24.19,102.82,49.46,79,0,2.39,clear sky
368,hereford,GB,2020-11-11 00:43:47,52.06,-2.71,50.0,94,100,7.16,overcast clouds
369,urumqi,CN,2020-11-11 00:40:04,43.8,87.6,35.6,64,0,2.24,clear sky
370,ayan,RU,2020-11-11 00:44:57,56.45,138.17,22.71,81,100,3.04,overcast clouds
371,nome,US,2020-11-11 00:44:57,64.5,-165.41,35.6,96,90,11.41,mist
372,bac lieu,VN,2020-11-11 00:44:57,9.29,105.72,76.05,80,100,9.35,overcast clouds
373,osoyoos,CA,2020-11-11 00:44:57,49.03,-119.45,39.2,80,52,2.24,broken clouds
374,kahului,US,2020-11-11 00:44:58,20.89,-156.47,86.0,51,40,23.04,scattered clouds
375,portland,US,2020-11-11 00:42:42,45.52,-122.68,48.99,83,100,1.01,overcast clouds
376,lakselv,NO,2020-11-11 00:44:58,70.05,24.97,28.4,74,99,8.05,overcast clouds
377,sistranda,NO,2020-11-11 00:44:58,63.73,8.83,42.8,93,40,12.75,scattered clouds
378,parral,MX,2020-11-11 00:43:29,26.93,-105.67,57.54,35,0,1.16,clear sky
379,birjand,IR,2020-11-11 00:44:58,32.87,59.22,46.56,55,0,4.83,clear sky
380,fortuna,US,2020-11-11 00:44:59,40.6,-124.16,51.01,87,20,8.05,few clouds
381,ilulissat,GL,2020-11-11 00:44:59,69.22,-51.1,5.58,93,75,1.1,broken clouds
382,komsomolskiy,UZ,2020-11-11 00:44:59,40.43,71.72,35.6,67,54,1.34,mist
383,dunedin,NZ,2020-11-11 00:44:59,-45.87,170.5,58.48,61,2,5.32,clear sky
384,lazaro cardenas,MX,2020-11-11 00:44:59,17.96,-102.2,77.79,77,64,3.0,broken clouds
385,lawton,US,2020-11-11 00:44:59,34.61,-98.39,55.4,37,1,4.7,haze
386,mitzic,GA,2020-11-11 00:45:00,0.78,11.55,66.56,97,1,1.63,clear sky
387,acari,PE,2020-11-11 00:45:00,-15.43,-74.62,65.08,69,9,2.82,clear sky
388,palana,RU,2020-11-11 00:45:00,59.12,159.97,19.13,96,100,9.89,overcast clouds
389,lublin,PL,2020-11-11 00:45:00,51.0,23.0,42.8,93,90,6.93,overcast clouds
390,sulangan,PH,2020-11-11 00:42:00,11.14,123.72,82.76,75,100,17.94,light rain
391,sirnak,TR,2020-11-11 00:45:01,37.52,42.46,46.81,82,10,1.48,clear sky
392,worland,US,2020-11-11 00:45:01,44.02,-107.96,34.0,47,90,0.18,overcast clouds
393,maniitsoq,GL,2020-11-11 00:45:01,65.42,-52.9,18.7,94,100,4.32,overcast clouds
394,lahij,YE,2020-11-11 00:45:01,13.17,44.58,70.66,64,0,2.21,clear sky
395,port hardy,CA,2020-11-11 00:42:07,50.7,-127.42,46.4,93,40,2.24,scattered clouds
396,nemuro,JP,2020-11-11 00:40:21,43.32,145.57,33.8,64,75,6.93,broken clouds
397,groningen,NL,2020-11-11 00:42:59,53.25,6.75,45.0,100,90,3.36,mist
398,yulara,AU,2020-11-11 00:45:03,-25.24,130.99,82.4,15,0,12.75,clear sky
399,ofaqim,IL,2020-11-11 00:45:04,31.31,34.62,64.0,78,0,0.45,clear sky
400,xai-xai,MZ,2020-11-11 00:45:04,-25.05,33.64,73.31,87,98,10.92,light rain
401,santa maria,BR,2020-11-11 00:45:05,-29.68,-53.81,73.4,64,0,1.12,clear sky
402,teya,RU,2020-11-11 00:45:05,60.38,92.63,25.09,94,99,10.16,overcast clouds
403,hit,IQ,2020-11-11 00:45:05,33.64,42.83,64.65,75,0,3.27,clear sky
404,gizo,SB,2020-11-11 00:45:07,-8.1,156.84,84.0,72,99,4.56,light rain
405,guarapari,BR,2020-11-11 00:45:07,-20.67,-40.5,77.0,83,20,8.05,few clouds
406,brewster,US,2020-11-11 00:43:31,41.4,-73.62,63.0,82,1,4.7,clear sky
407,cayenne,GF,2020-11-11 00:44:07,4.93,-52.33,77.0,100,20,6.82,few clouds
408,moree,AU,2020-11-11 00:45:07,-29.47,149.85,78.8,36,99,17.22,overcast clouds
409,chokurdakh,RU,2020-11-11 00:45:08,70.63,147.92,-6.65,93,91,2.04,overcast clouds
410,sorland,NO,2020-11-11 00:45:08,67.67,12.69,47.97,99,100,10.71,overcast clouds
411,sahuaripa,MX,2020-11-11 00:45:09,29.05,-109.23,61.2,35,0,2.71,clear sky
412,udalguri,IN,2020-11-11 00:45:10,26.77,92.13,63.27,69,0,4.65,clear sky
413,nishihara,JP,2020-11-11 00:45:10,26.18,127.76,73.4,73,90,6.93,overcast clouds
414,teahupoo,PF,2020-11-11 00:41:51,-17.83,-149.27,73.4,88,75,8.05,light rain
415,trat,TH,2020-11-11 00:45:11,12.5,102.5,69.55,82,100,7.47,overcast clouds
416,codrington,AU,2020-11-11 00:45:11,-38.27,141.97,69.85,84,100,13.33,light rain
417,zlynka,RU,2020-11-11 00:45:12,52.43,31.74,37.4,93,90,4.47,overcast clouds
418,morrope,PE,2020-11-11 00:45:12,-6.54,-80.01,66.2,72,0,11.41,clear sky
419,boromo,BF,2020-11-11 00:45:13,11.75,-2.93,74.95,22,0,3.69,clear sky
420,talnakh,RU,2020-11-11 00:45:13,69.49,88.4,5.0,92,40,6.71,light snow
421,muros,ES,2020-11-11 00:45:13,42.78,-9.06,48.99,87,0,8.05,clear sky
422,nizhniy kuranakh,RU,2020-11-11 00:45:14,58.84,125.49,30.4,97,96,3.44,overcast clouds
423,saurimo,AO,2020-11-11 00:45:14,-9.66,20.39,64.78,98,99,5.86,light rain
424,batagay-alyta,RU,2020-11-11 00:45:14,67.8,130.41,-12.1,87,96,2.39,overcast clouds
425,along,IN,2020-11-11 00:45:15,28.17,94.77,58.93,58,0,1.72,clear sky
426,tamworth,GB,2020-11-11 00:45:15,52.63,-1.7,48.0,100,0,5.82,clear sky
427,russellville,US,2020-11-11 00:41:53,35.28,-93.13,62.6,72,90,10.29,overcast clouds
428,kungurtug,RU,2020-11-11 00:45:16,50.6,97.52,19.92,92,49,3.44,scattered clouds
429,buala,SB,2020-11-11 00:45:16,-8.14,159.59,87.08,67,86,6.02,overcast clouds
430,maun,BW,2020-11-11 00:45:17,-19.98,23.42,78.8,57,0,5.82,clear sky
431,homer,US,2020-11-11 00:40:40,59.64,-151.55,45.0,65,90,14.99,overcast clouds
432,leh,IN,2020-11-11 00:45:17,34.17,77.58,28.6,69,60,3.06,broken clouds
433,kupang,ID,2020-11-11 00:45:17,-10.17,123.58,89.6,59,40,8.05,scattered clouds
434,takoradi,GH,2020-11-11 00:45:18,4.88,-1.76,78.24,86,71,5.93,moderate rain
435,markova,UA,2020-11-11 00:45:18,48.68,24.41,37.24,91,87,1.59,overcast clouds
436,petropavlovsk-kamchatskiy,RU,2020-11-11 00:45:18,53.05,158.65,23.0,62,81,4.47,broken clouds
437,karratha,AU,2020-11-11 00:45:19,-20.74,116.85,86.5,15,0,7.29,clear sky
438,havelock,US,2020-11-11 00:45:19,34.88,-76.9,72.0,94,1,3.36,clear sky
439,buchanan,LR,2020-11-11 00:45:19,5.88,-10.05,78.24,84,100,3.8,light rain
440,galdar,ES,2020-11-11 00:45:19,28.15,-15.65,69.8,77,75,11.41,broken clouds
441,pervomayskaya,RU,2020-11-11 00:45:20,43.4,45.53,46.4,70,90,6.71,overcast clouds
442,aklavik,CA,2020-11-11 00:45:20,68.22,-135.01,-9.4,83,75,5.82,broken clouds
443,akdepe,TM,2020-11-11 00:45:21,42.06,59.38,44.6,80,0,6.93,clear sky
444,egvekinot,RU,2020-11-11 00:45:21,66.32,-179.17,17.6,94,95,14.38,overcast clouds
445,nouadhibou,MR,2020-11-11 00:45:21,20.93,-17.03,73.4,60,0,12.75,clear sky
446,haveli,PK,2020-11-11 00:45:22,30.45,73.7,58.69,33,0,3.18,clear sky
447,bengkulu,ID,2020-11-11 00:45:22,-3.8,102.27,79.32,79,76,2.71,broken clouds
448,padang,ID,2020-11-11 00:45:23,-0.95,100.35,82.2,68,91,2.33,overcast clouds
449,cabangahan,PH,2020-11-11 00:45:23,9.08,122.95,86.0,70,75,6.93,shower rain
450,akom,CM,2020-11-11 00:45:23,2.67,12.71,66.85,95,3,1.45,clear sky
451,nouakchott,MR,2020-11-11 00:45:23,18.09,-15.98,75.2,44,0,5.82,clear sky
452,gallup,US,2020-11-11 00:45:23,35.53,-108.74,37.4,64,1,8.05,clear sky
453,la primavera,CO,2020-11-11 00:45:24,5.49,-70.41,77.92,81,87,1.72,overcast clouds
454,grajau,BR,2020-11-11 00:45:24,-5.82,-46.14,79.81,71,85,4.05,overcast clouds
455,doume,CM,2020-11-11 00:45:25,4.23,13.45,67.93,85,1,1.88,clear sky
456,hualmay,PE,2020-11-11 00:45:25,-11.1,-77.61,61.79,87,15,4.09,few clouds
457,tanete,ID,2020-11-11 00:45:25,-3.94,119.78,89.98,52,95,4.12,overcast clouds
458,tall kayf,TR,2020-11-11 00:45:26,37.08,41.07,55.4,82,75,9.17,broken clouds
459,harper,LR,2020-11-11 00:45:26,4.38,-7.72,78.12,88,100,8.1,light rain
460,port macquarie,AU,2020-11-11 00:45:27,-31.43,152.92,82.99,41,0,12.91,clear sky
461,rovaniemi,FI,2020-11-11 00:45:27,66.5,25.72,24.8,85,0,2.24,clear sky
462,moyale,KE,2020-11-11 00:45:27,3.52,39.06,66.13,78,30,5.44,scattered clouds
463,northam,GB,2020-11-11 00:45:28,51.03,-4.22,53.01,93,100,5.99,overcast clouds
464,copiapo,CL,2020-11-11 00:44:01,-27.37,-70.33,57.2,82,0,11.41,clear sky
465,porgera,PG,2020-11-11 00:45:28,-5.47,143.2,50.67,100,67,2.75,moderate rain
466,yerbogachen,RU,2020-11-11 00:41:51,61.28,108.01,26.85,98,100,6.26,overcast clouds
467,pisco,PE,2020-11-11 00:45:28,-13.7,-76.22,66.2,82,90,12.75,overcast clouds
468,lima,PE,2020-11-11 00:42:41,-12.04,-77.03,66.2,72,0,6.93,clear sky
469,santa cruz,BO,2020-11-11 00:45:29,-17.8,-63.17,77.0,83,75,8.05,broken clouds
470,grand gaube,MU,2020-11-11 00:45:29,-20.01,57.66,72.0,79,19,5.01,few clouds
471,klaksvik,FO,2020-11-11 00:45:29,62.23,-6.59,50.0,93,100,25.28,light rain
472,koutsouras,GR,2020-11-11 00:45:30,35.03,25.95,64.0,81,100,5.99,overcast clouds
473,ulaangom,MN,2020-11-11 00:45:30,49.98,92.07,21.88,91,0,1.7,clear sky
474,hunchun,CN,2020-11-11 00:45:30,42.87,130.36,40.12,63,0,0.65,clear sky
475,tucuman,AR,2020-11-11 00:45:31,-26.82,-65.22,73.4,88,90,3.36,overcast clouds
476,san rafael,AR,2020-11-11 00:45:31,-34.62,-68.33,69.13,55,8,2.04,moderate rain
477,kyzyl-suu,KG,2020-11-11 00:45:31,42.34,78.01,39.63,60,100,6.87,overcast clouds
478,raga,SS,2020-11-11 00:45:32,8.46,25.68,72.73,41,22,0.92,few clouds
479,katima mulilo,NA,2020-11-11 00:45:33,-17.5,24.27,71.6,83,92,6.93,overcast clouds
480,mecca,SA,2020-11-11 00:45:34,21.43,39.83,76.42,78,0,5.3,clear sky
481,umm kaddadah,SD,2020-11-11 00:45:35,13.6,26.69,72.73,25,26,16.93,scattered clouds
482,menongue,AO,2020-11-11 00:45:35,-14.66,17.69,64.13,83,100,6.98,overcast clouds
483,lewiston,US,2020-11-11 00:45:35,44.1,-70.21,57.99,87,1,5.21,clear sky
484,visnes,NO,2020-11-11 00:45:36,59.36,5.22,50.0,81,97,11.41,overcast clouds
485,san carlos,VE,2020-11-11 00:45:37,9.66,-68.58,75.45,91,89,2.33,overcast clouds
486,velingara,SN,2020-11-11 00:45:37,13.15,-14.12,78.21,39,0,2.59,clear sky
487,babstovo,RU,2020-11-11 00:45:38,48.12,132.48,22.96,87,66,5.23,broken clouds
488,damara,CF,2020-11-11 00:45:38,4.96,18.7,73.4,94,20,2.46,few clouds
489,jambi,ID,2020-11-11 00:45:38,-1.6,103.62,78.26,88,100,2.89,light rain
490,tselinnoye,RU,2020-11-11 00:45:39,53.08,85.67,30.18,93,100,7.09,overcast clouds
491,altamirano,MX,2020-11-11 00:45:39,16.88,-92.15,55.62,94,69,2.44,broken clouds
492,dudinka,RU,2020-11-11 00:45:39,69.41,86.18,5.0,92,40,6.71,light snow
493,palestina,PS,2020-11-11 00:45:12,31.92,35.2,64.0,88,0,3.36,clear sky
494,itarema,BR,2020-11-11 00:45:40,-2.92,-39.92,81.19,76,15,15.86,few clouds
495,anekal,IN,2020-11-11 00:45:40,12.7,77.7,62.6,93,20,6.33,mist
496,yaan,NG,2020-11-11 00:45:40,7.38,8.57,75.09,75,35,6.67,scattered clouds
497,oistins,BB,2020-11-11 00:45:41,13.07,-59.53,78.8,78,20,9.17,shower rain
498,popondetta,PG,2020-11-11 00:45:41,-8.75,148.25,90.61,55,83,4.38,light rain
499,batticaloa,LK,2020-11-11 00:45:41,7.71,81.69,77.43,89,71,6.62,broken clouds
500,hadishahr,AZ,2020-11-11 00:45:42,38.84,45.66,46.4,75,75,6.93,broken clouds
501,zenzeli,RU,2020-11-11 00:43:18,45.92,47.05,34.81,82,0,8.63,clear sky
502,ecatepec,MX,2020-11-11 00:42:28,19.6,-99.05,77.0,17,5,4.7,clear sky
503,sembakung,ID,2020-11-11 00:45:43,3.82,117.25,80.06,90,100,1.7,overcast clouds
504,upata,VE,2020-11-11 00:45:43,8.01,-62.4,82.0,73,15,1.01,few clouds
505,tabory,RU,2020-11-11 00:45:43,58.52,64.55,24.33,93,77,6.44,broken clouds
506,correntina,BR,2020-11-11 00:45:44,-13.34,-44.64,71.91,55,18,4.05,few clouds
507,iranshahr,IR,2020-11-11 00:45:44,27.2,60.68,62.6,25,0,6.93,clear sky
508,dayong,CN,2020-11-11 00:45:45,25.02,118.29,68.0,52,0,17.9,clear sky
509,sao luiz gonzaga,BR,2020-11-11 00:45:45,-28.41,-54.96,68.52,85,100,10.58,overcast clouds
510,emirdag,TR,2020-11-11 00:45:45,39.02,31.15,42.3,87,0,2.59,clear sky
511,kisangani,CD,2020-11-11 00:45:46,0.52,25.2,69.51,93,100,1.95,overcast clouds
512,ukiah,US,2020-11-11 00:45:20,39.15,-123.21,62.6,51,1,4.7,clear sky
513,tigaon,PH,2020-11-11 00:45:47,13.63,123.5,77.27,91,100,19.22,heavy intensity rain
514,zaragoza,ES,2020-11-11 00:45:47,41.66,-0.88,48.99,93,0,3.36,clear sky
515,surin,TH,2020-11-11 00:45:47,14.88,103.49,71.01,99,93,17.31,overcast clouds
516,lewisporte,CA,2020-11-11 00:45:48,49.25,-55.05,55.99,76,40,24.16,scattered clouds
517,jacareacanga,BR,2020-11-11 00:45:48,-6.22,-57.75,73.76,88,20,1.99,few clouds
518,san quintin,MX,2020-11-11 00:45:48,30.48,-115.95,61.11,54,0,12.12,clear sky
519,qianguo,CN,2020-11-11 00:45:49,45.12,124.86,42.62,67,0,14.32,clear sky
520,korla,CN,2020-11-11 00:45:49,41.76,86.15,36.41,68,0,4.5,clear sky
521,atar,MR,2020-11-11 00:45:49,20.52,-13.05,81.9,16,0,6.53,clear sky
522,the valley,AI,2020-11-11 00:45:49,18.22,-63.06,77.0,94,40,8.05,scattered clouds
523,adrar,MR,2020-11-11 00:45:50,20.5,-10.07,78.24,18,0,6.55,clear sky
524,bernardino de campos,BR,2020-11-11 00:45:50,-23.01,-49.47,68.77,86,100,4.05,overcast clouds
525,yueyang,CN,2020-11-11 00:45:51,29.33,113.09,61.32,53,0,1.97,clear sky
526,canto do buriti,BR,2020-11-11 00:45:51,-8.11,-42.94,77.83,58,0,2.71,clear sky
527,asosa,ET,2020-11-11 00:45:52,10.07,34.53,63.25,61,0,2.95,clear sky
528,camacupa,AO,2020-11-11 00:45:52,-12.02,17.48,61.81,94,100,5.17,overcast clouds
529,jutai,BR,2020-11-11 00:45:52,-5.18,-68.9,73.78,98,100,1.99,moderate rain
530,tansen,NP,2020-11-11 00:45:52,27.87,83.55,50.4,69,0,4.45,clear sky
531,suntar,RU,2020-11-11 00:45:53,62.14,117.63,28.67,96,98,6.82,overcast clouds
532,chenghai,CN,2020-11-11 00:45:53,23.46,116.77,66.2,63,0,2.24,clear sky
533,saint anthony,US,2020-11-11 00:43:58,45.02,-93.22,28.4,86,90,13.87,snow
534,abasolo,MX,2020-11-11 00:45:53,20.45,-101.52,78.8,21,40,4.7,scattered clouds
535,stutterheim,ZA,2020-11-11 00:45:54,-32.57,27.42,51.22,97,100,3.06,overcast clouds
536,goure,NE,2020-11-11 00:45:54,13.98,10.27,73.0,32,0,8.99,clear sky
537,ostersund,SE,2020-11-11 00:45:54,63.18,14.64,30.2,100,90,4.7,overcast clouds
538,arcachon,FR,2020-11-11 00:45:54,44.59,-1.05,46.4,100,90,1.12,fog
539,tilichiki,RU,2020-11-11 00:45:55,60.47,166.1,12.4,92,91,6.55,overcast clouds
540,ingham,US,2020-11-11 00:45:55,42.6,-84.38,71.6,64,75,8.05,broken clouds
541,raton,US,2020-11-11 00:45:55,36.9,-104.44,42.8,15,1,17.22,clear sky
542,bubaque,GW,2020-11-11 00:45:55,11.28,-15.83,83.08,79,0,12.77,clear sky
543,pundaguitan,PH,2020-11-11 00:45:56,6.37,126.17,83.12,72,75,4.25,broken clouds
544,yeniseysk,RU,2020-11-11 00:45:56,58.45,92.17,29.26,96,100,9.75,overcast clouds
545,kloulklubed,PW,2020-11-11 00:45:56,7.04,134.26,82.4,78,75,4.7,light intensity shower rain
546,raudeberg,NO,2020-11-11 00:45:56,61.99,5.14,48.2,87,93,9.17,overcast clouds
547,huaraz,PE,2020-11-11 00:45:56,-9.53,-77.53,54.46,59,100,4.52,overcast clouds
548,likasi,CD,2020-11-11 00:45:57,-10.98,26.73,66.47,70,100,1.86,light rain
549,namibe,AO,2020-11-11 00:45:57,-15.2,12.15,73.36,80,41,4.36,scattered clouds
550,emet,TR,2020-11-11 00:45:58,39.34,29.26,41.49,88,9,4.83,clear sky
551,saint-michel-des-saints,CA,2020-11-11 00:45:58,46.68,-73.92,61.0,88,100,9.13,overcast clouds
552,chengalpattu,IN,2020-11-11 00:45:58,12.7,79.98,77.0,83,75,5.82,mist
553,mogadishu,SO,2020-11-11 00:45:58,2.04,45.34,74.93,82,100,19.15,light rain
554,nanyamba,TZ,2020-11-11 00:45:58,-10.68,39.83,69.85,98,63,2.06,broken clouds
555,ishigaki,JP,2020-11-11 00:45:58,24.34,124.16,73.4,73,75,23.04,broken clouds
556,mormugao,IN,2020-11-11 00:45:59,15.4,73.8,69.8,64,20,6.93,light rain
557,wexford,IE,2020-11-11 00:45:59,52.33,-6.46,54.0,89,100,13.0,light rain
558,mayumba,GA,2020-11-11 00:46:00,-3.43,10.66,76.41,85,99,1.25,overcast clouds
559,nelson bay,AU,2020-11-11 00:46:00,-32.72,152.15,75.0,64,0,6.93,clear sky
560,mogzon,RU,2020-11-11 00:46:00,51.74,111.96,30.9,96,100,7.36,overcast clouds
561,jumla,NP,2020-11-11 00:46:00,29.27,82.18,41.4,64,0,4.12,clear sky
562,san policarpo,PH,2020-11-11 00:46:01,12.18,125.51,78.67,88,100,21.43,light rain
563,tehuacan,MX,2020-11-11 00:46:01,18.45,-97.38,70.0,61,0,1.34,clear sky
564,deputatskiy,RU,2020-11-11 00:46:01,69.3,139.9,-22.74,88,5,0.85,clear sky
565,challans,FR,2020-11-11 00:46:01,46.84,-1.87,50.0,92,52,3.85,broken clouds
566,synya,RU,2020-11-11 00:46:01,65.37,58.04,22.19,97,92,6.73,overcast clouds
567,beringovskiy,RU,2020-11-11 00:46:02,63.05,179.32,21.61,94,87,16.75,overcast clouds
568,porto walter,BR,2020-11-11 00:46:02,-8.27,-72.74,75.31,89,100,2.86,overcast clouds
569,ambilobe,MG,2020-11-11 00:46:03,-13.2,49.05,71.37,80,5,4.94,clear sky
570,baisha,CN,2020-11-11 00:46:03,26.52,110.93,61.11,48,0,1.19,clear sky
571,stodolishche,RU,2020-11-11 00:46:03,54.19,32.65,31.21,98,0,5.28,clear sky
572,atbasar,KZ,2020-11-11 00:46:03,51.8,68.33,30.74,94,100,11.05,overcast clouds
573,sao miguel do araguaia,BR,2020-11-11 00:46:03,-13.28,-50.16,78.28,69,100,4.59,overcast clouds
574,bonavista,CA,2020-11-11 00:46:04,48.65,-53.11,51.8,81,26,20.8,scattered clouds
575,ugoofaaru,MV,2020-11-11 00:46:04,5.67,73.0,82.67,70,100,4.43,overcast clouds
576,utete,TZ,2020-11-11 00:46:04,-7.99,38.76,76.01,89,100,1.54,light rain
577,hachinohe,JP,2020-11-11 00:46:04,40.5,141.5,35.6,93,75,12.75,broken clouds
578,porto-vecchio,FR,2020-11-11 00:46:04,41.59,9.28,57.2,100,75,3.69,broken clouds
579,brooks,CA,2020-11-11 00:46:05,50.58,-111.89,32.0,98,100,13.87,overcast clouds
580,banfora,BF,2020-11-11 00:46:05,10.63,-4.77,75.2,31,0,3.27,clear sky
581,jadu,LY,2020-11-11 00:46:05,31.95,12.03,50.11,93,0,0.47,clear sky
582,harer,ET,2020-11-11 00:46:05,9.31,42.13,60.19,64,44,3.49,scattered clouds
583,melsungen,DE,2020-11-11 00:46:06,51.13,9.55,41.0,100,100,3.36,overcast clouds
584,caruray,PH,2020-11-11 00:46:06,10.31,119.01,80.6,88,40,4.7,scattered clouds
585,san cristobal,VE,2020-11-11 00:46:06,7.77,-72.22,67.41,91,99,1.03,light rain
586,zyryanka,RU,2020-11-11 00:46:06,65.75,150.85,-7.91,91,84,4.21,broken clouds
587,aktash,RU,2020-11-11 00:46:07,50.3,87.73,6.42,88,9,7.11,clear sky
588,marondera,ZW,2020-11-11 00:46:07,-18.19,31.55,59.92,91,0,7.14,clear sky
589,poum,NC,2020-11-11 00:46:07,-20.23,164.02,71.06,89,100,17.58,moderate rain
590,road town,VG,2020-11-11 00:43:17,18.42,-64.62,75.99,96,100,5.99,overcast clouds
591,kapoeta,SS,2020-11-11 00:46:08,4.77,33.59,74.37,74,33,9.53,moderate rain
592,iisalmi,FI,2020-11-11 00:46:08,63.56,27.19,28.4,100,0,4.7,clear sky
593,maarianhamina,AX,2020-11-11 00:46:08,60.1,19.93,42.8,87,90,4.7,overcast clouds
594,kaeo,NZ,2020-11-11 00:46:08,-35.1,173.78,66.99,61,34,10.0,scattered clouds
595,malinalco,MX,2020-11-11 00:46:08,18.95,-99.5,80.6,42,5,4.7,clear sky
596,awbari,LY,2020-11-11 00:46:09,26.59,12.78,52.9,49,2,1.36,clear sky
597,dakar,SN,2020-11-11 00:41:54,14.69,-17.44,80.6,88,0,9.33,clear sky
598,sao jose da coroa grande,BR,2020-11-11 00:46:09,-8.9,-35.15,76.73,79,0,9.42,clear sky
599,ustyuzhna,RU,2020-11-11 00:46:09,58.84,36.43,28.45,98,0,5.86,clear sky
600,abha,SA,2020-11-11 00:46:10,18.22,42.51,59.0,93,0,1.3,clear sky
601,la plata,AR,2020-11-11 00:46:02,-34.92,-57.95,66.0,76,95,3.0,overcast clouds
602,celestun,MX,2020-11-11 00:46:10,20.87,-90.4,78.39,82,10,12.03,clear sky
603,anju,KP,2020-11-11 00:46:10,39.62,125.66,44.38,57,0,3.13,clear sky
604,skerries,IE,2020-11-11 00:46:11,53.58,-6.11,55.0,81,75,12.75,broken clouds
605,ondjiva,AO,2020-11-11 00:46:11,-17.07,15.73,78.71,24,83,7.78,broken clouds
606,suoyarvi,RU,2020-11-11 00:46:11,62.08,32.35,28.22,94,100,4.38,overcast clouds
607,rybnaya sloboda,RU,2020-11-11 00:46:12,55.46,50.14,32.0,96,75,15.66,snow
608,shenjiamen,CN,2020-11-11 00:46:12,29.96,122.3,62.64,60,6,11.16,clear sky
609,svetlyy,RU,2020-11-11 00:46:12,54.67,20.13,33.8,100,40,4.47,scattered clouds
610,liuzhou,CN,2020-11-11 00:46:12,24.31,109.39,62.78,53,0,7.29,clear sky
611,sackville,CA,2020-11-11 00:46:13,45.92,-64.38,57.2,71,34,4.7,scattered clouds
612,gillette,US,2020-11-11 00:41:57,44.29,-105.5,35.6,37,90,8.05,overcast clouds
613,zaysan,KZ,2020-11-11 00:46:13,47.47,84.87,31.84,87,0,1.32,clear sky
614,baracoa,CU,2020-11-11 00:46:13,20.35,-74.5,78.93,82,89,0.98,overcast clouds
615,tahe,CN,2020-11-11 00:41:32,52.33,124.73,20.86,94,9,1.63,clear sky
616,yenagoa,NG,2020-11-11 00:46:13,4.92,6.26,75.27,93,89,1.45,overcast clouds
617,maldonado,UY,2020-11-11 00:46:14,-34.67,-54.92,62.6,82,0,17.22,clear sky
618,kieta,PG,2020-11-11 00:46:14,-6.22,155.63,84.67,72,95,6.11,light rain
619,hemsedal,NO,2020-11-11 00:46:14,60.86,8.55,37.04,85,100,1.99,overcast clouds
620,laureles,US,2020-11-11 00:46:14,26.11,-97.49,77.0,83,1,6.93,clear sky
621,chara,RU,2020-11-11 00:46:15,56.91,118.26,27.59,95,100,1.48,light snow
622,gobabis,NA,2020-11-11 00:46:15,-22.45,18.97,66.2,48,0,1.12,clear sky
623,manyana,BW,2020-11-11 00:46:15,-23.4,21.72,70.54,55,0,6.02,clear sky
624,iquitos,PE,2020-11-11 00:46:16,-3.75,-73.25,77.0,94,0,1.12,clear sky
625,bairiki,KI,2020-11-11 00:46:16,1.33,172.98,84.2,79,40,10.29,scattered clouds
626,bonthe,SL,2020-11-11 00:46:16,7.53,-12.51,78.12,85,38,4.68,moderate rain
627,chapais,CA,2020-11-11 00:46:16,49.78,-74.85,51.8,100,90,5.82,fog
628,florencia,IT,2020-11-11 00:46:16,43.77,11.25,54.0,100,0,1.12,clear sky
629,zatoka,UA,2020-11-11 00:46:17,46.07,30.47,42.8,70,75,6.71,broken clouds
630,wellsford,NZ,2020-11-11 00:46:17,-36.28,174.52,64.99,79,97,5.99,overcast clouds
631,paratebueno,CO,2020-11-11 00:46:17,4.38,-73.22,75.42,88,100,3.04,light rain
632,akyab,MM,2020-11-11 00:46:17,20.15,92.9,76.6,78,4,5.68,clear sky
633,jerez,GT,2020-11-11 00:46:18,14.1,-89.75,73.4,78,40,3.74,scattered clouds
634,half moon bay,US,2020-11-11 00:46:06,37.46,-122.43,59.0,66,90,6.93,overcast clouds
635,marau,BR,2020-11-11 00:46:18,-28.45,-52.2,64.6,92,96,3.8,overcast clouds
636,plettenberg bay,ZA,2020-11-11 00:46:18,-34.05,23.37,56.41,79,18,3.69,few clouds
637,rodrigues alves,BR,2020-11-11 00:46:18,-7.74,-72.65,74.73,91,100,2.91,overcast clouds
638,scarborough,GB,2020-11-11 00:46:18,54.28,-0.4,46.99,93,77,1.01,broken clouds
639,gat,IL,2020-11-11 00:46:19,31.61,34.76,64.0,83,0,0.43,clear sky
640,maturin,VE,2020-11-11 00:46:19,9.75,-63.18,74.44,87,92,5.91,overcast clouds
641,nong kung si,TH,2020-11-11 00:46:19,16.65,103.3,69.8,73,75,6.93,broken clouds
642,tautira,PF,2020-11-11 00:46:19,-17.73,-149.15,73.4,88,75,8.05,light rain
643,yamada,JP,2020-11-11 00:46:20,39.47,141.95,45.39,54,6,7.61,clear sky
644,grand-santi,GF,2020-11-11 00:46:20,4.25,-54.38,75.58,88,100,2.44,overcast clouds
645,trairi,BR,2020-11-11 00:46:20,-3.28,-39.27,80.98,77,3,12.39,clear sky
646,atasu,KZ,2020-11-11 00:46:20,48.68,71.64,39.07,71,100,23.24,overcast clouds
647,almaznyy,RU,2020-11-11 00:46:20,48.04,40.05,39.2,64,75,8.95,broken clouds
648,koumac,NC,2020-11-11 00:46:20,-20.57,164.28,73.09,77,100,5.73,overcast clouds
649,ndende,GA,2020-11-11 00:46:21,-2.4,11.36,71.62,95,100,1.23,overcast clouds
650,zhanaozen,KZ,2020-11-11 00:46:21,43.3,52.8,41.49,70,89,8.08,overcast clouds
651,ust-kuyga,RU,2020-11-11 00:46:21,70.02,135.6,-16.53,82,100,7.92,overcast clouds
652,perth,AU,2020-11-11 00:41:48,-31.93,115.83,60.01,62,0,5.82,clear sky
653,fukue,JP,2020-11-11 00:46:22,32.69,128.84,59.0,54,20,9.17,few clouds
654,balabac,PH,2020-11-11 00:46:22,7.99,117.06,83.25,72,43,3.56,scattered clouds
655,zile,TR,2020-11-11 00:46:22,40.3,35.89,51.8,76,75,11.41,broken clouds
656,paulo afonso,BR,2020-11-11 00:46:22,-9.41,-38.21,74.8,70,0,11.61,clear sky
657,durgapur,IN,2020-11-11 00:46:23,23.48,87.32,71.6,78,40,5.82,haze
658,mocuba,MZ,2020-11-11 00:46:23,-16.84,36.99,72.79,95,3,2.66,clear sky
659,warrington,GB,2020-11-11 00:46:23,53.39,-2.58,52.0,87,100,9.17,overcast clouds
660,linhai,CN,2020-11-11 00:46:23,28.85,121.12,61.0,61,0,2.8,clear sky
661,primo tapia,MX,2020-11-11 00:46:23,32.22,-116.92,66.2,39,5,13.87,clear sky
662,ducheng,CN,2020-11-11 00:46:24,23.24,111.53,66.33,45,0,2.89,clear sky
663,lafiagi,NG,2020-11-11 00:46:24,8.87,5.42,79.45,64,56,4.68,broken clouds
664,alice springs,AU,2020-11-11 00:46:24,-23.7,133.88,89.6,24,5,16.11,dust
665,capelinha,BR,2020-11-11 00:44:46,-17.69,-42.52,63.91,88,3,3.62,clear sky
666,sironko,UG,2020-11-11 00:46:24,1.23,34.25,65.46,72,6,2.93,clear sky
667,aksarka,RU,2020-11-11 00:46:25,66.56,67.8,4.98,92,66,4.43,broken clouds
668,timiryazevskiy,RU,2020-11-11 00:46:25,56.49,84.88,32.0,85,100,10.02,overcast clouds
669,maxixe,MZ,2020-11-11 00:46:25,-23.86,35.35,72.0,92,9,8.32,clear sky
670,pinillos,CO,2020-11-11 00:46:25,8.92,-74.47,75.31,96,100,4.9,moderate rain
671,rio cuarto,AR,2020-11-11 00:44:24,-33.13,-64.35,69.8,68,0,4.7,clear sky
672,rurrenabaque,BO,2020-11-11 00:46:26,-14.44,-67.53,74.7,94,100,4.18,heavy intensity rain
673,faanui,PF,2020-11-11 00:46:26,-16.48,-151.75,75.18,84,100,9.13,light rain
674,hofn,IS,2020-11-11 00:46:26,64.25,-15.21,41.13,89,100,23.15,moderate rain
675,samandag,TR,2020-11-11 00:46:26,36.08,35.98,53.6,100,0,3.36,clear sky
676,jinchang,CN,2020-11-11 00:46:27,38.5,102.17,41.23,53,70,2.62,broken clouds
677,puerto madryn,AR,2020-11-11 00:46:27,-42.77,-65.04,61.52,82,4,14.05,clear sky
678,oparino,RU,2020-11-11 00:46:27,59.85,48.28,28.67,95,100,10.04,overcast clouds
679,anantapur,IN,2020-11-11 00:44:18,14.68,77.6,62.65,77,0,2.48,clear sky
680,walvis bay,NA,2020-11-11 00:46:27,-22.96,14.51,55.99,87,0,8.05,clear sky
681,pao de acucar,BR,2020-11-11 00:46:28,-9.75,-37.44,75.74,72,0,9.35,clear sky
682,ketchikan,US,2020-11-11 00:46:28,55.34,-131.65,42.8,79,40,8.05,scattered clouds
683,ahuimanu,US,2020-11-11 00:46:28,21.44,-157.84,86.0,65,40,13.87,scattered clouds
684,mapimi,MX,2020-11-11 00:46:28,25.82,-103.85,86.0,38,5,4.05,clear sky
685,makakilo city,US,2020-11-11 00:42:07,21.35,-158.09,87.8,45,40,11.41,scattered clouds
686,calama,CL,2020-11-11 00:45:23,-22.47,-68.93,62.6,16,0,21.92,clear sky
687,bowen,AU,2020-11-11 00:46:30,-20.02,148.23,80.6,51,40,14.99,scattered clouds
688,ugra,RU,2020-11-11 00:46:30,54.78,34.33,31.95,97,81,4.88,broken clouds
689,prince george,CA,2020-11-11 00:46:30,53.92,-122.75,28.4,92,90,5.06,overcast clouds
690,natal,BR,2020-11-11 00:46:30,-5.79,-35.21,78.8,83,75,17.22,broken clouds
691,klyuchevskiy,RU,2020-11-11 00:46:31,53.53,119.45,22.28,98,100,0.89,overcast clouds
692,uyemskiy,RU,2020-11-11 00:46:31,64.47,40.85,32.0,95,75,8.95,broken clouds
693,blagoyevo,RU,2020-11-11 00:46:31,63.37,47.92,25.99,97,55,8.25,broken clouds
694,port augusta,AU,2020-11-11 00:46:32,-32.5,137.77,77.0,25,0,12.75,clear sky
695,beira,MZ,2020-11-11 00:46:32,-19.84,34.84,77.2,86,58,8.16,broken clouds
696,pyay,MM,2020-11-11 00:46:32,18.82,95.22,72.86,88,0,7.29,clear sky
697,auki,SB,2020-11-11 00:46:32,-8.77,160.7,86.72,62,86,5.88,overcast clouds
